{
  "inflows": [
    {
      "id": "horseshoe_main_channel",
      "lake_id": "horseshoe_lake_ar",
      "name": "Main Channel Inlet",
      "latitude": 34.960,
      "longitude": -90.340,
      "stream_name": "Mississippi River Overflow",
      "usgs_gage_id": null,
      "avg_annual_flow_cfs": 150,
      "drainage_area_sq_mi": 25,
      "description": "Primary water source during high Mississippi stages"
    },
    {
      "id": "horseshoe_ditch_1",
      "lake_id": "horseshoe_lake_ar",
      "name": "Northern Drainage Ditch",
      "latitude": 34.950,
      "longitude": -90.330,
      "stream_name": "Agricultural Drainage",
      "usgs_gage_id": null,
      "avg_annual_flow_cfs": 25,
      "drainage_area_sq_mi": 8,
      "description": "Carries runoff from surrounding farmland"
    },
    {
      "id": "reelfoot_running_reelfoot",
      "lake_id": "reelfoot_lake_tn",
      "name": "Running Reelfoot Bayou",
      "latitude": 36.425,
      "longitude": -89.420,
      "stream_name": "Running Reelfoot Bayou",
      "usgs_gage_id": "07025400",
      "avg_annual_flow_cfs": 180,
      "drainage_area_sq_mi": 65,
      "description": "Primary outlet/inlet depending on stage - connects to Obion River"
    },
    {
      "id": "reelfoot_indian_creek",
      "lake_id": "reelfoot_lake_tn",
      "name": "Indian Creek",
      "latitude": 36.380,
      "longitude": -89.350,
      "stream_name": "Indian Creek",
      "usgs_gage_id": null,
      "avg_annual_flow_cfs": 45,
      "drainage_area_sq_mi": 18,
      "description": "Eastern tributary bringing nutrient-rich water"
    },
    {
      "id": "reelfoot_spillway",
      "lake_id": "reelfoot_lake_tn",
      "name": "Upper Blue Basin Inlet",
      "latitude": 36.415,
      "longitude": -89.400,
      "stream_name": "Reelfoot Creek",
      "usgs_gage_id": null,
      "avg_annual_flow_cfs": 60,
      "drainage_area_sq_mi": 22,
      "description": "Northwestern inflow to upper Blue Basin"
    },
    {
      "id": "ky_tennessee_river",
      "lake_id": "kentucky_lake_tn",
      "name": "Tennessee River Main",
      "latitude": 36.100,
      "longitude": -88.080,
      "stream_name": "Tennessee River",
      "usgs_gage_id": "03604000",
      "avg_annual_flow_cfs": 45000,
      "drainage_area_sq_mi": 38900,
      "description": "Main inflow from Pickwick Dam - major water source"
    },
    {
      "id": "ky_big_sandy",
      "lake_id": "kentucky_lake_tn",
      "name": "Big Sandy River",
      "latitude": 36.245,
      "longitude": -88.195,
      "stream_name": "Big Sandy River",
      "usgs_gage_id": "03605000",
      "avg_annual_flow_cfs": 850,
      "drainage_area_sq_mi": 485,
      "description": "Major tributary on west side - excellent crappie area"
    },
    {
      "id": "ky_blood_river",
      "lake_id": "kentucky_lake_tn",
      "name": "Blood River",
      "latitude": 36.510,
      "longitude": -88.250,
      "stream_name": "Blood River",
      "usgs_gage_id": null,
      "avg_annual_flow_cfs": 320,
      "drainage_area_sq_mi": 210,
      "description": "Large eastern embayment with excellent structure"
    },
    {
      "id": "ky_jonathan_creek",
      "lake_id": "kentucky_lake_tn",
      "name": "Jonathan Creek",
      "latitude": 36.780,
      "longitude": -88.220,
      "stream_name": "Jonathan Creek",
      "usgs_gage_id": null,
      "avg_annual_flow_cfs": 180,
      "drainage_area_sq_mi": 120,
      "description": "Northern embayment popular for crappie"
    },
    {
      "id": "ky_duck_river",
      "lake_id": "kentucky_lake_tn",
      "name": "Duck River",
      "latitude": 36.045,
      "longitude": -87.920,
      "stream_name": "Duck River",
      "usgs_gage_id": "03599500",
      "avg_annual_flow_cfs": 2100,
      "drainage_area_sq_mi": 2520,
      "description": "Major tributary bringing nutrient-rich water"
    },
    {
      "id": "ky_ledbetter_creek",
      "lake_id": "kentucky_lake_tn",
      "name": "Ledbetter Creek",
      "latitude": 36.880,
      "longitude": -88.320,
      "stream_name": "Ledbetter Creek",
      "usgs_gage_id": null,
      "avg_annual_flow_cfs": 85,
      "drainage_area_sq_mi": 55,
      "description": "Productive embayment in Kentucky section"
    },
    {
      "id": "pickwick_tennessee",
      "lake_id": "pickwick_lake_tn",
      "name": "Tennessee River Main",
      "latitude": 35.195,
      "longitude": -88.050,
      "stream_name": "Tennessee River",
      "usgs_gage_id": "03592500",
      "avg_annual_flow_cfs": 43000,
      "drainage_area_sq_mi": 36900,
      "description": "Main channel from Wilson Dam"
    },
    {
      "id": "pickwick_bear_creek",
      "lake_id": "pickwick_lake_tn",
      "name": "Bear Creek",
      "latitude": 34.900,
      "longitude": -88.180,
      "stream_name": "Bear Creek",
      "usgs_gage_id": "03586500",
      "avg_annual_flow_cfs": 580,
      "drainage_area_sq_mi": 667,
      "description": "Large tributary on AL side - spawning area"
    },
    {
      "id": "pickwick_indian_creek",
      "lake_id": "pickwick_lake_tn",
      "name": "Indian Creek",
      "latitude": 34.980,
      "longitude": -88.350,
      "stream_name": "Indian Creek",
      "usgs_gage_id": null,
      "avg_annual_flow_cfs": 145,
      "drainage_area_sq_mi": 95,
      "description": "Popular fishing embayment"
    },
    {
      "id": "pickwick_yellow_creek",
      "lake_id": "pickwick_lake_tn",
      "name": "Yellow Creek",
      "latitude": 34.855,
      "longitude": -88.240,
      "stream_name": "Yellow Creek",
      "usgs_gage_id": null,
      "avg_annual_flow_cfs": 120,
      "drainage_area_sq_mi": 78,
      "description": "MS side embayment with good structure"
    },
    {
      "id": "wheeler_tennessee",
      "lake_id": "wheeler_lake_al",
      "name": "Tennessee River Main",
      "latitude": 34.795,
      "longitude": -86.970,
      "stream_name": "Tennessee River",
      "usgs_gage_id": "03575830",
      "avg_annual_flow_cfs": 41000,
      "drainage_area_sq_mi": 35500,
      "description": "Main channel from Guntersville Dam"
    },
    {
      "id": "wheeler_flint_river",
      "lake_id": "wheeler_lake_al",
      "name": "Flint River",
      "latitude": 34.720,
      "longitude": -86.525,
      "stream_name": "Flint River",
      "usgs_gage_id": "03575100",
      "avg_annual_flow_cfs": 520,
      "drainage_area_sq_mi": 342,
      "description": "North shore tributary near Huntsville"
    },
    {
      "id": "wheeler_elk_river",
      "lake_id": "wheeler_lake_al",
      "name": "Elk River",
      "latitude": 34.690,
      "longitude": -87.180,
      "stream_name": "Elk River",
      "usgs_gage_id": "03584500",
      "avg_annual_flow_cfs": 2800,
      "drainage_area_sq_mi": 2093,
      "description": "Major tributary - prime crappie and bass water"
    },
    {
      "id": "wheeler_limestone_creek",
      "lake_id": "wheeler_lake_al",
      "name": "Limestone Creek",
      "latitude": 34.720,
      "longitude": -87.050,
      "stream_name": "Limestone Creek",
      "usgs_gage_id": null,
      "avg_annual_flow_cfs": 180,
      "drainage_area_sq_mi": 115,
      "description": "Productive northern embayment"
    },
    {
      "id": "guntersville_tennessee",
      "lake_id": "guntersville_lake_al",
      "name": "Tennessee River Main",
      "latitude": 34.630,
      "longitude": -86.140,
      "stream_name": "Tennessee River",
      "usgs_gage_id": "03574500",
      "avg_annual_flow_cfs": 38000,
      "drainage_area_sq_mi": 34000,
      "description": "Main channel from Nickajack Dam"
    },
    {
      "id": "guntersville_paint_rock",
      "lake_id": "guntersville_lake_al",
      "name": "Paint Rock River",
      "latitude": 34.565,
      "longitude": -86.315,
      "stream_name": "Paint Rock River",
      "usgs_gage_id": "03574000",
      "avg_annual_flow_cfs": 480,
      "drainage_area_sq_mi": 320,
      "description": "Northern tributary with clear water"
    },
    {
      "id": "guntersville_short_creek",
      "lake_id": "guntersville_lake_al",
      "name": "Short Creek",
      "latitude": 34.360,
      "longitude": -86.200,
      "stream_name": "Short Creek",
      "usgs_gage_id": null,
      "avg_annual_flow_cfs": 75,
      "drainage_area_sq_mi": 48,
      "description": "Popular fishing area south shore"
    },
    {
      "id": "guntersville_town_creek",
      "lake_id": "guntersville_lake_al",
      "name": "Town Creek",
      "latitude": 34.450,
      "longitude": -86.480,
      "stream_name": "Town Creek",
      "usgs_gage_id": null,
      "avg_annual_flow_cfs": 220,
      "drainage_area_sq_mi": 145,
      "description": "Western embayment good for crappie"
    },
    {
      "id": "weiss_coosa_river",
      "lake_id": "weiss_lake_al",
      "name": "Coosa River Main",
      "latitude": 34.265,
      "longitude": -85.545,
      "stream_name": "Coosa River",
      "usgs_gage_id": "02397000",
      "avg_annual_flow_cfs": 4200,
      "drainage_area_sq_mi": 4040,
      "description": "Main inflow from upstream - carries warm water"
    },
    {
      "id": "weiss_little_river",
      "lake_id": "weiss_lake_al",
      "name": "Little River",
      "latitude": 34.175,
      "longitude": -85.690,
      "stream_name": "Little River",
      "usgs_gage_id": "02399200",
      "avg_annual_flow_cfs": 680,
      "drainage_area_sq_mi": 500,
      "description": "Major western tributary - cooler water source"
    },
    {
      "id": "weiss_chattooga_river",
      "lake_id": "weiss_lake_al",
      "name": "Chattooga River",
      "latitude": 34.180,
      "longitude": -85.520,
      "stream_name": "Chattooga River",
      "usgs_gage_id": null,
      "avg_annual_flow_cfs": 380,
      "drainage_area_sq_mi": 285,
      "description": "Eastern tributary from Georgia"
    },
    {
      "id": "weiss_spring_creek",
      "lake_id": "weiss_lake_al",
      "name": "Spring Creek",
      "latitude": 34.120,
      "longitude": -85.640,
      "stream_name": "Spring Creek",
      "usgs_gage_id": null,
      "avg_annual_flow_cfs": 95,
      "drainage_area_sq_mi": 62,
      "description": "Southern feeder creek"
    },
    {
      "id": "chickamauga_tennessee",
      "lake_id": "chickamauga_lake_tn",
      "name": "Tennessee River Main",
      "latitude": 35.235,
      "longitude": -85.040,
      "stream_name": "Tennessee River",
      "usgs_gage_id": "03568000",
      "avg_annual_flow_cfs": 35000,
      "drainage_area_sq_mi": 32500,
      "description": "Main channel from Watts Bar Dam"
    },
    {
      "id": "chickamauga_hiwassee",
      "lake_id": "chickamauga_lake_tn",
      "name": "Hiwassee River",
      "latitude": 35.200,
      "longitude": -84.920,
      "stream_name": "Hiwassee River",
      "usgs_gage_id": "03566000",
      "avg_annual_flow_cfs": 3500,
      "drainage_area_sq_mi": 2700,
      "description": "Major cold-water tributary from mountains"
    },
    {
      "id": "chickamauga_dallas_bay",
      "lake_id": "chickamauga_lake_tn",
      "name": "Dallas Bay Creek",
      "latitude": 35.110,
      "longitude": -85.050,
      "stream_name": "Dallas Bay Creek",
      "usgs_gage_id": null,
      "avg_annual_flow_cfs": 45,
      "drainage_area_sq_mi": 28,
      "description": "Protected embayment popular for crappie"
    },
    {
      "id": "chickamauga_sale_creek",
      "lake_id": "chickamauga_lake_tn",
      "name": "Sale Creek",
      "latitude": 35.370,
      "longitude": -85.105,
      "stream_name": "Sale Creek",
      "usgs_gage_id": null,
      "avg_annual_flow_cfs": 65,
      "drainage_area_sq_mi": 42,
      "description": "Northern embayment with good structure"
    },
    {
      "id": "watts_bar_tennessee",
      "lake_id": "watts_bar_lake_tn",
      "name": "Tennessee River Main",
      "latitude": 35.680,
      "longitude": -84.720,
      "stream_name": "Tennessee River",
      "usgs_gage_id": "03540500",
      "avg_annual_flow_cfs": 28000,
      "drainage_area_sq_mi": 28500,
      "description": "Main channel from Fort Loudoun Dam"
    },
    {
      "id": "watts_bar_clinch",
      "lake_id": "watts_bar_lake_tn",
      "name": "Clinch River",
      "latitude": 35.880,
      "longitude": -84.580,
      "stream_name": "Clinch River",
      "usgs_gage_id": "03528000",
      "avg_annual_flow_cfs": 4800,
      "drainage_area_sq_mi": 4413,
      "description": "Major tributary with cold releases from Norris"
    },
    {
      "id": "watts_bar_emory",
      "lake_id": "watts_bar_lake_tn",
      "name": "Emory River",
      "latitude": 35.870,
      "longitude": -84.510,
      "stream_name": "Emory River",
      "usgs_gage_id": "03540000",
      "avg_annual_flow_cfs": 1100,
      "drainage_area_sq_mi": 865,
      "description": "Eastern tributary - productive fishing area"
    },
    {
      "id": "watts_bar_piney_creek",
      "lake_id": "watts_bar_lake_tn",
      "name": "Piney Creek",
      "latitude": 35.720,
      "longitude": -84.850,
      "stream_name": "Piney Creek",
      "usgs_gage_id": null,
      "avg_annual_flow_cfs": 75,
      "drainage_area_sq_mi": 48,
      "description": "Western embayment with structure"
    },
    {
      "id": "old_hickory_cumberland",
      "lake_id": "old_hickory_lake_tn",
      "name": "Cumberland River Main",
      "latitude": 36.280,
      "longitude": -86.390,
      "stream_name": "Cumberland River",
      "usgs_gage_id": "03426310",
      "avg_annual_flow_cfs": 15000,
      "drainage_area_sq_mi": 14200,
      "description": "Main channel from Cordell Hull Dam"
    },
    {
      "id": "old_hickory_stones_river",
      "lake_id": "old_hickory_lake_tn",
      "name": "Stones River",
      "latitude": 36.200,
      "longitude": -86.550,
      "stream_name": "Stones River",
      "usgs_gage_id": "03426500",
      "avg_annual_flow_cfs": 1200,
      "drainage_area_sq_mi": 895,
      "description": "Major tributary from Murfreesboro area"
    },
    {
      "id": "old_hickory_bledsoe_creek",
      "lake_id": "old_hickory_lake_tn",
      "name": "Bledsoe Creek",
      "latitude": 36.355,
      "longitude": -86.400,
      "stream_name": "Bledsoe Creek",
      "usgs_gage_id": null,
      "avg_annual_flow_cfs": 85,
      "drainage_area_sq_mi": 55,
      "description": "State park area - excellent crappie fishing"
    },
    {
      "id": "old_hickory_drakes_creek",
      "lake_id": "old_hickory_lake_tn",
      "name": "Drakes Creek",
      "latitude": 36.230,
      "longitude": -86.430,
      "stream_name": "Drakes Creek",
      "usgs_gage_id": null,
      "avg_annual_flow_cfs": 120,
      "drainage_area_sq_mi": 78,
      "description": "Southern tributary with good structure"
    },
    {
      "id": "percy_priest_stones",
      "lake_id": "percy_priest_lake_tn",
      "name": "Stones River Main",
      "latitude": 36.050,
      "longitude": -86.550,
      "stream_name": "Stones River",
      "usgs_gage_id": "03424500",
      "avg_annual_flow_cfs": 850,
      "drainage_area_sq_mi": 635,
      "description": "Main inflow from southeast"
    },
    {
      "id": "percy_priest_fall_creek",
      "lake_id": "percy_priest_lake_tn",
      "name": "Fall Creek",
      "latitude": 36.110,
      "longitude": -86.505,
      "stream_name": "Fall Creek",
      "usgs_gage_id": null,
      "avg_annual_flow_cfs": 95,
      "drainage_area_sq_mi": 62,
      "description": "Northern arm - popular recreation area"
    },
    {
      "id": "percy_priest_stewart_creek",
      "lake_id": "percy_priest_lake_tn",
      "name": "Stewart Creek",
      "latitude": 36.020,
      "longitude": -86.470,
      "stream_name": "Stewart Creek",
      "usgs_gage_id": null,
      "avg_annual_flow_cfs": 45,
      "drainage_area_sq_mi": 28,
      "description": "Southern embayment near Smyrna"
    },
    {
      "id": "center_hill_caney_fork",
      "lake_id": "center_hill_lake_tn",
      "name": "Caney Fork River",
      "latitude": 36.070,
      "longitude": -85.700,
      "stream_name": "Caney Fork River",
      "usgs_gage_id": "03417010",
      "avg_annual_flow_cfs": 2200,
      "drainage_area_sq_mi": 1680,
      "description": "Main inflow - clear, cold water"
    },
    {
      "id": "center_hill_falling_water",
      "lake_id": "center_hill_lake_tn",
      "name": "Falling Water River",
      "latitude": 35.920,
      "longitude": -85.580,
      "stream_name": "Falling Water River",
      "usgs_gage_id": "03415000",
      "avg_annual_flow_cfs": 380,
      "drainage_area_sq_mi": 270,
      "description": "Eastern tributary with cool springs"
    },
    {
      "id": "center_hill_collins",
      "lake_id": "center_hill_lake_tn",
      "name": "Collins River",
      "latitude": 35.880,
      "longitude": -85.640,
      "stream_name": "Collins River",
      "usgs_gage_id": "03413200",
      "avg_annual_flow_cfs": 520,
      "drainage_area_sq_mi": 395,
      "description": "Southern arm - productive fishing area"
    },
    {
      "id": "dale_hollow_obey",
      "lake_id": "dale_hollow_lake_tn",
      "name": "Obey River Main",
      "latitude": 36.540,
      "longitude": -85.350,
      "stream_name": "Obey River",
      "usgs_gage_id": "03417500",
      "avg_annual_flow_cfs": 1500,
      "drainage_area_sq_mi": 860,
      "description": "Main inflow - exceptionally clear water"
    },
    {
      "id": "dale_hollow_wolf",
      "lake_id": "dale_hollow_lake_tn",
      "name": "Wolf River",
      "latitude": 36.585,
      "longitude": -85.480,
      "stream_name": "Wolf River",
      "usgs_gage_id": null,
      "avg_annual_flow_cfs": 280,
      "drainage_area_sq_mi": 180,
      "description": "Northern arm into Kentucky section"
    },
    {
      "id": "dale_hollow_illwill_creek",
      "lake_id": "dale_hollow_lake_tn",
      "name": "Illwill Creek",
      "latitude": 36.530,
      "longitude": -85.240,
      "stream_name": "Illwill Creek",
      "usgs_gage_id": null,
      "avg_annual_flow_cfs": 65,
      "drainage_area_sq_mi": 42,
      "description": "Eastern embayment with structure"
    },
    {
      "id": "cordell_hull_cumberland",
      "lake_id": "cordell_hull_lake_tn",
      "name": "Cumberland River Main",
      "latitude": 36.380,
      "longitude": -85.930,
      "stream_name": "Cumberland River",
      "usgs_gage_id": "03423000",
      "avg_annual_flow_cfs": 11000,
      "drainage_area_sq_mi": 11000,
      "description": "Main channel from Center Hill tailwater"
    },
    {
      "id": "cordell_hull_caney",
      "lake_id": "cordell_hull_lake_tn",
      "name": "Caney Fork Confluence",
      "latitude": 36.180,
      "longitude": -85.950,
      "stream_name": "Caney Fork River",
      "usgs_gage_id": "03417500",
      "avg_annual_flow_cfs": 2500,
      "drainage_area_sq_mi": 1700,
      "description": "Cold water inflow from Center Hill Dam"
    },
    {
      "id": "grenada_yalobusha",
      "lake_id": "grenada_lake_ms",
      "name": "Yalobusha River",
      "latitude": 33.875,
      "longitude": -89.720,
      "stream_name": "Yalobusha River",
      "usgs_gage_id": "07282000",
      "avg_annual_flow_cfs": 1800,
      "drainage_area_sq_mi": 1540,
      "description": "Main inflow from east"
    },
    {
      "id": "grenada_skuna",
      "lake_id": "grenada_lake_ms",
      "name": "Skuna River",
      "latitude": 33.860,
      "longitude": -89.680,
      "stream_name": "Skuna River",
      "usgs_gage_id": "07282500",
      "avg_annual_flow_cfs": 580,
      "drainage_area_sq_mi": 475,
      "description": "Southern tributary"
    },
    {
      "id": "sardis_tallahatchie",
      "lake_id": "sardis_lake_ms",
      "name": "Tallahatchie River",
      "latitude": 34.470,
      "longitude": -89.790,
      "stream_name": "Tallahatchie River",
      "usgs_gage_id": "07280000",
      "avg_annual_flow_cfs": 1400,
      "drainage_area_sq_mi": 1180,
      "description": "Main inflow from the north"
    },
    {
      "id": "sardis_east_fork",
      "lake_id": "sardis_lake_ms",
      "name": "East Fork Tallahatchie",
      "latitude": 34.455,
      "longitude": -89.740,
      "stream_name": "East Fork Tallahatchie",
      "usgs_gage_id": null,
      "avg_annual_flow_cfs": 280,
      "drainage_area_sq_mi": 195,
      "description": "Eastern arm inflow"
    },
    {
      "id": "enid_yocona",
      "lake_id": "enid_lake_ms",
      "name": "Yocona River",
      "latitude": 34.155,
      "longitude": -89.920,
      "stream_name": "Yocona River",
      "usgs_gage_id": "07276000",
      "avg_annual_flow_cfs": 420,
      "drainage_area_sq_mi": 350,
      "description": "Main inflow from Oxford area"
    },
    {
      "id": "ross_barnett_pearl",
      "lake_id": "ross_barnett_ms",
      "name": "Pearl River Main",
      "latitude": 32.445,
      "longitude": -89.995,
      "stream_name": "Pearl River",
      "usgs_gage_id": "02486000",
      "avg_annual_flow_cfs": 3500,
      "drainage_area_sq_mi": 3020,
      "description": "Main inflow from north"
    },
    {
      "id": "ross_barnett_pelahatchie",
      "lake_id": "ross_barnett_ms",
      "name": "Pelahatchie Creek",
      "latitude": 32.410,
      "longitude": -89.880,
      "stream_name": "Pelahatchie Creek",
      "usgs_gage_id": null,
      "avg_annual_flow_cfs": 85,
      "drainage_area_sq_mi": 55,
      "description": "Eastern tributary"
    },
    {
      "id": "arkabutla_coldwater",
      "lake_id": "arkabutla_lake_ms",
      "name": "Coldwater River",
      "latitude": 34.785,
      "longitude": -90.090,
      "stream_name": "Coldwater River",
      "usgs_gage_id": "07278000",
      "avg_annual_flow_cfs": 650,
      "drainage_area_sq_mi": 508,
      "description": "Main inflow from north"
    },
    {
      "id": "pickwick_cypress_creek",
      "lake_id": "pickwick_lake_tn",
      "name": "Cypress Creek",
      "latitude": 35.020,
      "longitude": -88.080,
      "stream_name": "Cypress Creek",
      "usgs_gage_id": null,
      "avg_annual_flow_cfs": 85,
      "drainage_area_sq_mi": 55,
      "description": "TN side tributary with good bass habitat"
    },
    {
      "id": "guntersville_mud_creek",
      "lake_id": "guntersville_lake_al",
      "name": "Mud Creek",
      "latitude": 34.480,
      "longitude": -86.380,
      "stream_name": "Mud Creek",
      "usgs_gage_id": null,
      "avg_annual_flow_cfs": 55,
      "drainage_area_sq_mi": 35,
      "description": "Northern embayment creek"
    },
    {
      "id": "ky_sugar_creek",
      "lake_id": "kentucky_lake_tn",
      "name": "Sugar Creek",
      "latitude": 36.320,
      "longitude": -88.120,
      "stream_name": "Sugar Creek",
      "usgs_gage_id": null,
      "avg_annual_flow_cfs": 95,
      "drainage_area_sq_mi": 60,
      "description": "West bank embayment with brush piles"
    }
  ]
}
